{"places":{"results":[{"id":2,"name":"New Start","lang":"en","coords":"39.059283,-76.877007","address":"Queens Chapel United Methodist Church, 7410 Old Muirkirk Road, Beltsville, MD 20705 USA","last_access":"1970-01-02 00:00:00","owner_id":"7","latitude":39.059283,"longitude":-76.877007,"address_elements":{"venue":"Queens Chapel United Methodist Church","street_address":"7410 Old Muirkirk Road","town":"Beltsville","state":"MD","postal_code":"20705","nation":"USA"},"tag8":"20:00:00"},{"id":33,"name":"One Addict Helping Another","lang":"en","coords":"39.314462,-76.676931","address":"Baltimore Cares, Inc., 2300 Garrison Boulevard, Baltimore, MD 21216 USA","last_access":"1970-01-02 00:00:00","owner_id":"7","latitude":39.314462,"longitude":-76.676931,"address_elements":{"venue":"Baltimore Cares, Inc.","street_address":"2300 Garrison Boulevard","town":"Baltimore","county":"Baltimore City","state":"MD","postal_code":"21216","nation":"USA"},"tag8":"12:00:00"},{"id":17,"name":"You Get What You Need","lang":"en","coords":"39.277995,-76.531749","address":"Grace Land United Methodist Church, 6714 Youngstown Ave, Dundalk, MD 21222 USA","last_access":"1970-01-02 00:00:00","owner_id":"7","latitude":39.277995,"longitude":-76.531749,"address_elements":{"venue":"Grace Land United Methodist Church","street_address":"6714 Youngstown Ave","town":"Dundalk","county":"Baltimore City","state":"MD","postal_code":"21222","nation":"USA"},"tag8":"19:15:00"},{"id":245,"name":"Still In The Process","lang":"en","coords":"39.322056,-76.600627","address":"Coldstream Rec. Ctr., 1401 Filmore St., Baltimore, MD 21218 USA","last_access":"1970-01-02 00:00:00","owner_id":"7","latitude":39.322056,"longitude":-76.600627,"address_elements":{"venue":"Coldstream Rec. Ctr.","street_address":"1401 Filmore St.","town":"Baltimore","county":"Baltimore City","state":"MD","postal_code":"21218","nation":"USA"},"tag8":"19:00:00"},{"id":23,"name":"Living Clean","lang":"en","coords":"39.330530,-76.700685","address":"Gwynn Oak United Methodist Church, 5020 Gwynn Oak Avenue, Baltimore, MD 21207 USA","last_access":"1970-01-02 00:00:00","owner_id":"7","latitude":39.33053,"longitude":-76.700685,"address_elements":{"venue":"Gwynn Oak United Methodist Church","street_address":"5020 Gwynn Oak Avenue","town":"Baltimore","county":"Baltimore City","state":"MD","postal_code":"21207","nation":"USA"},"tag8":"18:30:00"},{"id":1700,"name":"This Is How","lang":"en","coords":"39.798641,-75.567866","address":"Mount Lebanon Church, 850 Mount Lebanon Road, Wilmington, DE 19803 USA","last_access":"1970-01-02 00:00:00","owner_id":"11","latitude":39.798641,"longitude":-75.567866,"address_elements":{"venue":"Mount Lebanon Church","street_address":"850 Mount Lebanon Road","town":"Wilmington","county":"New Castle","state":"DE","postal_code":"19803","nation":"USA"},"tag8":"19:00:00"}]}}